cityListingPrice_Year = [[{"Latitude": 47.6062, "Longitude": -122.3321, "City": "Seattle", "Year": 2013, "Listing": 1998.0, "Price": 417429.166666667, "Increment": 0.0}, {"Latitude": 47.6062, "Longitude": -122.3321, "City": "Seattle", "Year": 2014, "Listing": 1914.083333, "Price": 438141.166666667, "Increment": 20712.0}, {"Latitude": 47.6062, "Longitude": -122.3321, "City": "Seattle", "Year": 2015, "Listing": 1530.333333, "Price": 492101.666666667, "Increment": 53960.5}, {"Latitude": 47.6062, "Longitude": -122.3321, "City": "Seattle", "Year": 2016, "Listing": 1580.75, "Price": 573070.833333333, "Increment": 80969.166666666}, {"Latitude": 47.6062, "Longitude": -122.3321, "City": "Seattle", "Year": 2017, "Listing": 1243.916667, "Price": 644591.666666667, "Increment": 71520.833333334}, {"Latitude": 47.6062, "Longitude": -122.3321, "City": "Seattle", "Year": 2018, "Listing": 1644.25, "Price": 709395.833333333, "Increment": 64804.166666666}, {"Latitude": 47.6062, "Longitude": -122.3321, "City": "Seattle", "Year": 2019, "Listing": 1682.0, "Price": 687750.0, "Increment": -21645.833333333}, {"Latitude": 47.4797, "Longitude": -122.2079, "City": "Renton", "Year": 2013, "Listing": 430.083333, "Price": 325999.5, "Increment": 0.0}, {"Latitude": 47.4797, "Longitude": -122.2079, "City": "Renton", "Year": 2014, "Listing": 515.333333, "Price": 358339.583333333, "Increment": 32340.083333333}, {"Latitude": 47.4797, "Longitude": -122.2079, "City": "Renton", "Year": 2015, "Listing": 429.5, "Price": 364649.875, "Increment": 6310.29166666698}, {"Latitude": 47.4797, "Longitude": -122.2079, "City": "Renton", "Year": 2016, "Listing": 388.333333, "Price": 397604.0, "Increment": 32954.125}, {"Latitude": 47.4797, "Longitude": -122.2079, "City": "Renton", "Year": 2017, "Listing": 262.0, "Price": 435559.916666667, "Increment": 37955.916666667}, {"Latitude": 47.4797, "Longitude": -122.2079, "City": "Renton", "Year": 2018, "Listing": 365.583333, "Price": 512545.666666667, "Increment": 76985.75}, {"Latitude": 47.4797, "Longitude": -122.2079, "City": "Renton", "Year": 2019, "Listing": 321.333333, "Price": 574316.666666667, "Increment": 61771.0}, {"Latitude": 47.6101, "Longitude": -122.2015, "City": "Bellevue", "Year": 2013, "Listing": 425.416667, "Price": 619695.333333333, "Increment": 0.0}, {"Latitude": 47.6101, "Longitude": -122.2015, "City": "Bellevue", "Year": 2014, "Listing": 416.333333, "Price": 664691.666666667, "Increment": 44996.333333334}, {"Latitude": 47.6101, "Longitude": -122.2015, "City": "Bellevue", "Year": 2015, "Listing": 390.833333, "Price": 694231.25, "Increment": 29539.583333333}, {"Latitude": 47.6101, "Longitude": -122.2015, "City": "Bellevue", "Year": 2016, "Listing": 349.583333, "Price": 782105.25, "Increment": 87874.0}, {"Latitude": 47.6101, "Longitude": -122.2015, "City": "Bellevue", "Year": 2017, "Listing": 275.166667, "Price": 905258.708333333, "Increment": 123153.458333333}, {"Latitude": 47.6101, "Longitude": -122.2015, "City": "Bellevue", "Year": 2018, "Listing": 363.416667, "Price": 960263.625, "Increment": 55004.916666667}, {"Latitude": 47.6101, "Longitude": -122.2015, "City": "Bellevue", "Year": 2019, "Listing": 344.666667, "Price": 962000.0, "Increment": 1736.375}, {"Latitude": 47.7601, "Longitude": -122.2054, "City": "Bothell", "Year": 2013, "Listing": 164.166667, "Price": 377279.416666667, "Increment": 0.0}, {"Latitude": 47.7601, "Longitude": -122.2054, "City": "Bothell", "Year": 2014, "Listing": 183.583333, "Price": 437206.25, "Increment": 59926.833333333}, {"Latitude": 47.7601, "Longitude": -122.2054, "City": "Bothell", "Year": 2015, "Listing": 199.083333, "Price": 467627.916666667, "Increment": 30421.666666667}, {"Latitude": 47.7601, "Longitude": -122.2054, "City": "Bothell", "Year": 2016, "Listing": 224.25, "Price": 511294.583333333, "Increment": 43666.666666666}, {"Latitude": 47.7601, "Longitude": -122.2054, "City": "Bothell", "Year": 2017, "Listing": 192.666667, "Price": 598977.958333333, "Increment": 87683.375}, {"Latitude": 47.7601, "Longitude": -122.2054, "City": "Bothell", "Year": 2018, "Listing": 203.916667, "Price": 674486.666666667, "Increment": 75508.708333334}, {"Latitude": 47.7601, "Longitude": -122.2054, "City": "Bothell", "Year": 2019, "Listing": 241.666667, "Price": 687650.0, "Increment": 13163.333333333}, {"Latitude": 47.8209, "Longitude": -122.3151, "City": "Lynnwood", "Year": 2013, "Listing": 194.25, "Price": 309859.916666667, "Increment": 0.0}, {"Latitude": 47.8209, "Longitude": -122.3151, "City": "Lynnwood", "Year": 2014, "Listing": 267.166667, "Price": 334976.25, "Increment": 25116.333333333}, {"Latitude": 47.8209, "Longitude": -122.3151, "City": "Lynnwood", "Year": 2015, "Listing": 213.416667, "Price": 355485.375, "Increment": 20509.125}, {"Latitude": 47.8209, "Longitude": -122.3151, "City": "Lynnwood", "Year": 2016, "Listing": 179.0, "Price": 383325.0, "Increment": 27839.625}, {"Latitude": 47.8209, "Longitude": -122.3151, "City": "Lynnwood", "Year": 2017, "Listing": 148.666667, "Price": 430228.333333333, "Increment": 46903.333333333}, {"Latitude": 47.8209, "Longitude": -122.3151, "City": "Lynnwood", "Year": 2018, "Listing": 220.333333, "Price": 503998.5, "Increment": 73770.166666667}, {"Latitude": 47.8209, "Longitude": -122.3151, "City": "Lynnwood", "Year": 2019, "Listing": 183.0, "Price": 497666.666666667, "Increment": -6331.83333333302}, {"Latitude": 47.6769, "Longitude": -122.206, "City": "Kirkland", "Year": 2013, "Listing": 375.916667, "Price": 508485.125, "Increment": 0.0}, {"Latitude": 47.6769, "Longitude": -122.206, "City": "Kirkland", "Year": 2014, "Listing": 404.916667, "Price": 534630.833333333, "Increment": 26145.708333333}, {"Latitude": 47.6769, "Longitude": -122.206, "City": "Kirkland", "Year": 2015, "Listing": 373.0, "Price": 586562.5, "Increment": 51931.666666667}, {"Latitude": 47.6769, "Longitude": -122.206, "City": "Kirkland", "Year": 2016, "Listing": 291.5, "Price": 683469.333333333, "Increment": 96906.833333333}, {"Latitude": 47.6769, "Longitude": -122.206, "City": "Kirkland", "Year": 2017, "Listing": 234.666667, "Price": 747515.833333333, "Increment": 64046.5}, {"Latitude": 47.6769, "Longitude": -122.206, "City": "Kirkland", "Year": 2018, "Listing": 268.916667, "Price": 842385.375, "Increment": 94869.541666667}, {"Latitude": 47.6769, "Longitude": -122.206, "City": "Kirkland", "Year": 2019, "Listing": 263.666667, "Price": 845000.0, "Increment": 2614.625}, {"Latitude": 47.6769, "Longitude": -122.206, "City": "Sammamish", "Year": 2013, "Listing": 246.166667, "Price": 656850.833333333, "Increment": 0.0}, {"Latitude": 47.6769, "Longitude": -122.206, "City": "Sammamish", "Year": 2014, "Listing": 271.166667, "Price": 735385.0, "Increment": 78534.166666667}, {"Latitude": 47.6769, "Longitude": -122.206, "City": "Sammamish", "Year": 2015, "Listing": 211.5, "Price": 764898.333333333, "Increment": 29513.333333333}, {"Latitude": 47.6769, "Longitude": -122.206, "City": "Sammamish", "Year": 2016, "Listing": 177.333333, "Price": 833348.166666667, "Increment": 68449.833333334}, {"Latitude": 47.6769, "Longitude": -122.206, "City": "Sammamish", "Year": 2017, "Listing": 155.833333, "Price": 934986.25, "Increment": 101638.083333333}, {"Latitude": 47.6769, "Longitude": -122.206, "City": "Sammamish", "Year": 2018, "Listing": 229.583333, "Price": 1093581.04166667, "Increment": 158594.79166667}, {"Latitude": 47.6769, "Longitude": -122.206, "City": "Sammamish", "Year": 2019, "Listing": 201.666667, "Price": 1137664.16666667, "Increment": 44083.125}, {"Latitude": 47.6769, "Longitude": -122.206, "City": "Shoreline", "Year": 2013, "Listing": 80.333333, "Price": 319460.416666667, "Increment": 0.0}, {"Latitude": 47.6769, "Longitude": -122.206, "City": "Shoreline", "Year": 2014, "Listing": 82.25, "Price": 348672.833333333, "Increment": 29212.416666666}, {"Latitude": 47.6769, "Longitude": -122.206, "City": "Shoreline", "Year": 2015, "Listing": 84.75, "Price": 390726.0, "Increment": 42053.166666667}, {"Latitude": 47.6769, "Longitude": -122.206, "City": "Shoreline", "Year": 2016, "Listing": 82.25, "Price": 443024.958333333, "Increment": 52298.958333333}, {"Latitude": 47.6769, "Longitude": -122.206, "City": "Shoreline", "Year": 2017, "Listing": 78.833333, "Price": 533544.666666667, "Increment": 90519.708333334}, {"Latitude": 47.6769, "Longitude": -122.206, "City": "Shoreline", "Year": 2018, "Listing": 81.416667, "Price": 618572.458333333, "Increment": 85027.791666666}, {"Latitude": 47.6769, "Longitude": -122.206, "City": "Shoreline", "Year": 2019, "Listing": 91.333333, "Price": 615623.0, "Increment": -2949.45833333302}, {"Latitude": 47.674, "Longitude": -122.1215, "City": "Redmond", "Year": 2013, "Listing": 154.666667, "Price": 591138.666666667, "Increment": 0.0}, {"Latitude": 47.674, "Longitude": -122.1215, "City": "Redmond", "Year": 2014, "Listing": 155.25, "Price": 623682.708333333, "Increment": 32544.041666666}, {"Latitude": 47.674, "Longitude": -122.1215, "City": "Redmond", "Year": 2015, "Listing": 154.5, "Price": 632412.083333333, "Increment": 8729.375}, {"Latitude": 47.674, "Longitude": -122.1215, "City": "Redmond", "Year": 2016, "Listing": 137.25, "Price": 704980.625, "Increment": 72568.541666667}, {"Latitude": 47.674, "Longitude": -122.1215, "City": "Redmond", "Year": 2017, "Listing": 138.5833333, "Price": 706820.75, "Increment": 1840.125}, {"Latitude": 47.674, "Longitude": -122.1215, "City": "Redmond", "Year": 2018, "Listing": 132.666667, "Price": 817202.083333333, "Increment": 110381.333333333}, {"Latitude": 47.674, "Longitude": -122.1215, "City": "Redmond", "Year": 2019, "Listing": 124.666667, "Price": 850233.333333333, "Increment": 33031.25}]]